general:
  name: 校区
  content:
    - latitude: 43.82738
      longitude: 125.4274
      name: 净月校区
      detail: 中国吉林省长春市南关区净月大街 2555 号
      path: index

gate:
  name: 校门
  content:
    - latitude: 43.82853
      longitude: 125.43107
      name: 一号门
      detail: 净月校区一号门
      path: gate1

    - latitude: 43.82886
      longitude: 125.42689
      name: 二号门
      detail: 净月校区二号门
      path: gate2

    - latitude: 43.82789
      longitude: 125.42381
      name: 三号门
      detail: 净月校区三号门
      path: gate3

    - latitude: 43.82661
      longitude: 125.41988
      name: 四号门
      detail: 净月校区四号门
      path: gate4

    - latitude: 43.8248713856
      longitude: 125.4177331924
      name: 五号门
      detail: 净月校区五号门
      path: gate5

dorm:
  name: 寝室
  content:
    - latitude: 43.824736
      longitude: 125.421456
      name: 春华公寓
      detail: 春华公寓
      path: spring

    - latitude: 43.825324
      longitude: 125.423039
      name: 夏华公寓
      detail: 夏华公寓
      path: summer

    - latitude: 43.824910
      longitude: 125.423892
      name: 秋华公寓
      detail: 秋华公寓
      path: autumn

    - latitude: 43.824732
      longitude: 125.425748
      name: 冬华公寓
      detail: 冬华公寓
      path: winter

    - latitude: 43.826837
      longitude: 125.422744
      name: 日华公寓
      detail: 日华公寓
      path: sun

    - latitude: 43.826706
      longitude: 125.421660
      name: 月华公寓
      detail: 月华公寓
      path: moon

    - latitude: 43.825932
      longitude: 125.422803
      name: 星华公寓
      detail: 星华公寓
      path: star

    - latitude: 43.825486
      longitude: 125.421076
      name: 光华公寓
      detail: 光华公寓
      path: light

    - latitude: 43.825426
      longitude: 125.434102
      name: 天华公寓
      detail: 天华公寓

    - latitude: 43.825307
      longitude: 125.433375
      name: 地华公寓
      detail: 地华公寓

school:
  name: 学院
  content:
    - latitude: 43.82776
      longitude: 125.42727
      name: 经济与管理学院
      detail: 东北师范大学经济与管理学院
      path: economy

    - latitude: 43.82748
      longitude: 125.42448
      name: 民族教育学院
      detail: 东北师范大学民族教育学院
      path: people

    - latitude: 43.825102
      longitude: 125.426706
      name: 环境学院
      detail: 东北师范大学环境学院
      path: environment

    - latitude: 43.82714
      longitude: 125.42598
      name: 政法学院
      detail: 东北师范大学政法学院
      path: politics

    - latitude: 43.82637
      longitude: 125.42704
      name: 传媒科学学院
      detail: 东北师范大学传媒科学学院
      path: media

    - latitude: 43.82651
      longitude: 125.42935
      name: 音乐学院
      detail: 东北师范大学音乐学院
      path: music

    - latitude: 43.82614
      longitude: 125.42558
      name: 外国语学院
      detail: 净月校区外国语学院
      path: art

    - latitude: 43.82564
      longitude: 125.42814
      name: 美术学院油画系
      detail: 东北师范大学美术学院油画系
      path: art

    - latitude: 43.82532
      longitude: 125.42952
      name: 美术学院雕塑系
      detail: 东北师范大学美术学院雕塑系
      path: art

    - latitude: 43.8251152084
      longitude: 125.4289072752
      name: 美术学院服装教学楼
      detail: 东北师范大学美术学院服装教学楼
      path: art

    - latitude: 43.82572
      longitude: 125.42695
      name: 信息科学与技术学院
      detail: 东北师范大学信息科学与技术学院
      path: ist

    - latitude: 43.82841
      longitude: 125.42667
      name: 纽瓦克学院
      detail: 东北师范大学纽瓦克学院
      path: newark

    - latitude: 43.8279558644
      longitude: 125.4254311323
      name: 留学生教育学院
      detail: 东北师范大学净月校区留学生教育学院

    - latitude: 43.8261408015
      longitude: 125.4205870628
      name: 留学生外国留学生预科部
      detail: 东北师范大学净月校区外国留学生预科部

building:
  name: 建筑
  content:
    - latitude: 43.82609
      longitude: 125.42431
      name: 图书馆
      detail: 净月校区图书馆
      path: library

    - latitude: 43.826485242
      longitude: 125.4239934683
      name: 学生社团联合会
      detail: 净月校区学生社团联合会

    - latitude: 43.824791
      longitude: 125.426178
      name: 综合教学楼
      detail: 净月校区综合教学楼

    - latitude: 43.826562644
      longitude: 125.4334563017
      name: 校园管理科
      detail: 净月校区校园管理科

    - latitude: 43.825582
      longitude: 125.418001
      name: 辐射技术研究所
      detail: 东北师范大学辐射技术研究所

    - latitude: 43.824258
      longitude: 125.427163
      name: 药物基因和蛋白筛选国家工程实验室
      detail: 东北师范大学药物基因和蛋白筛选国家工程实验室

    - latitude: 43.824792
      longitude: 125.41865
      name: 东北师范大学出版社
      detail: 东北师范大学出版社

facility:
  name: 设施
  content:
    - latitude: 43.82704
      longitude: 125.42385
      name: 一食堂
      detail: 净月校区一食堂

    - latitude: 43.825301
      longitude: 125.424682
      name: 二食堂
      detail: 净月校区二食堂

    - latitude: 43.82599
      longitude: 125.42091
      name: 浴池
      detail: 净月校区浴池

    - latitude: 43.8257228
      longitude: 125.4244387
      name: 卫生所
      detail: 净月校区卫生所

    - latitude: 43.82504
      longitude: 125.424923
      name: 快递中心
      detail: 快递中心

    - latitude: 43.825166
      longitude: 125.424927
      name: 超市
      detail: 超市

scenery:
  name: 风景
  content:
    - latitude: 43.8276540028
      longitude: 125.4286766052
      name: 旭日广场
      detail: 净月校区旭日广场

    - latitude: 43.8274605009
      longitude: 125.4255920649
      name: 牡丹园
      detail: 净月校区牡丹园

    - latitude: 43.8282383746
      longitude: 125.4300552607
      name: 林园
      detail: 净月校区林园

sports:
  name: 运动场地
  content:
    - latitude: 43.8244146989
      longitude: 125.4207158089
      name: 田径场
      detail: 净月校区田径场

    - latitude: 43.8239038249
      longitude: 125.4219603539
      name: 足球场
      detail: 净月校区足球场

    - latitude: 43.8238844735
      longitude: 125.4226791859
      name: 篮球场
      detail: 净月校区篮球场

    - latitude: 43.8238844735
      longitude: 125.4240846634
      name: 网球场
      detail: 净月校区网球场

    - latitude: 43.823919306
      longitude: 125.4245567322
      name: 排球场
      detail: 净月校区排球场

    - latitude: 43.8241166896
      longitude: 125.4242831469
      name: 轮滑场
      detail: 净月校区轮滑场
